City_ID,City,Lat,Lng,Max Temp,Humidity,Cloudiness,Wind Speed,Country,Date
0,saldanha,-33.0117,17.9442,21.03,94,6,6.21,ZA,1707764390
1,petropavlovsk-kamchatsky,53.0452,158.6483,-18.08,81,0,3.58,RU,1707764367
2,vorgashor,67.5833,63.95,-36.91,100,64,1.36,RU,1707764366
3,grytviken,-54.2811,-36.5092,3.76,94,100,1.0,GS,1707764358
4,ust'-kulom,61.6864,53.6902,-12.53,97,100,1.48,RU,1707764565
5,nemuro,43.3236,145.575,-3.17,83,100,4.63,JP,1707764381
6,blackmans bay,-43.0167,147.3167,12.07,93,88,1.21,AU,1707764357
7,puerto natales,-51.7236,-72.4875,14.25,47,75,10.8,CL,1707764362
8,bredasdorp,-34.5322,20.0403,21.02,84,34,3.81,ZA,1707764384
9,adamstown,-25.066,-130.1015,24.78,89,100,8.29,PN,1707764356
10,rantauprapat,2.1,99.8333,23.07,95,64,0.31,ID,1707764565
11,invercargill,-46.4,168.35,10.01,87,100,2.24,NZ,1707764367
12,pajapan,18.25,-94.7,21.97,91,100,5.81,MX,1707764441
13,kalmunai,7.4167,81.8167,25.5,87,100,4.04,LK,1707764565
14,tazovsky,67.4667,78.7,-37.57,100,21,1.9,RU,1707764359
15,margaret river,-33.95,115.0667,14.3,78,0,6.02,AU,1707764361
16,virar,19.4667,72.8,26.05,49,87,2.69,IN,1707764566
17,waitangi,-43.9535,-176.5597,14.9,83,76,3.13,NZ,1707764357
18,jayapura,-2.5333,140.7,23.66,90,100,1.73,ID,1707764566
19,chamba,32.5667,76.1333,12.07,51,100,2.64,IN,1707764566
20,klyuchi,52.2667,79.1667,-14.48,91,22,2.98,RU,1707764379
21,benemerito de las americas,16.5167,-90.6439,33.34,40,0,4.19,MX,1707764566
22,bilibino,68.0546,166.4372,-30.23,98,100,1.66,RU,1707764360
23,port augusta,-32.5,137.7667,23.27,69,2,2.23,AU,1707764390
24,san patricio,28.017,-97.5169,17.17,41,0,6.95,US,1707764473
25,vanersborg,58.3807,12.3234,-1.9,93,100,3.09,SE,1707764567
26,al kharj,24.155,47.3346,15.32,58,0,2.73,SA,1707764567
27,ancud,-41.8697,-73.8203,17.14,47,3,2.65,CL,1707764368
28,timbuktu,16.7735,-3.0074,29.16,6,0,3.74,ML,1707764567
29,colonia,50.9333,6.95,7.76,79,0,2.06,DE,1707764342
30,constantia,44.1833,28.65,7.38,78,94,7.78,RO,1707764369
31,rantepao,-2.9701,119.8978,22.98,99,100,1.13,ID,1707764567
32,stanley,54.868,-1.6985,5.77,84,20,4.63,GB,1707764358
33,lompoc,34.6391,-120.4579,18.16,62,0,2.06,US,1707764389
34,edinburgh of the seven seas,-37.0676,-12.3116,17.3,72,100,6.62,SH,1707764376
35,howard springs,-12.497,131.047,27.95,96,100,4.61,AU,1707764568
36,sept-iles,50.2001,-66.3821,-1.08,65,20,4.12,CA,1707764568
37,zhumysker,49.3333,49.4,0.29,99,100,3.59,KZ,1707764568
38,fortuna,40.5982,-124.1573,12.77,81,100,2.24,US,1707764455
39,lushun,38.8,121.2667,4.12,83,0,5.24,CN,1707764568
40,bethel,41.3712,-73.414,6.99,63,0,2.57,US,1707764365
41,nuku'alofa,-21.1333,-175.2,27.19,94,75,5.14,TO,1707764392
42,albany,42.6001,-73.9662,4.54,65,100,0.89,US,1707764088
43,madalena,41.2162,-8.3345,14.06,91,100,1.36,PT,1707764568
44,hasaki,35.7333,140.8333,-0.78,52,6,6.89,JP,1707764387
45,taltal,-25.4,-70.4833,19.82,86,100,3.96,CL,1707764390
46,iskateley,67.6803,53.1512,-32.77,100,41,2.24,RU,1707764367
47,punta arenas,-53.15,-70.9167,14.01,54,75,7.72,CL,1707764087
48,iranshahr,27.2025,60.6848,18.19,55,0,0.0,IR,1707764569
49,la palma,33.8464,-118.0467,19.95,42,20,1.54,US,1707764569
50,salinopolis,-0.6136,-47.3561,27.91,77,99,4.9,BR,1707764365
51,guerrero negro,27.9769,-114.0611,17.64,34,0,0.93,MX,1707764309
52,bodaybo,57.8506,114.1933,-20.38,99,100,0.74,RU,1707764457
53,hailun,47.45,126.9333,-2.49,88,35,5.6,CN,1707764569
54,ushuaia,-54.8,-68.3,12.81,54,20,6.17,AR,1707764370
55,east end,34.5507,-92.341,7.05,87,100,0.89,US,1707764570
56,lakehills,29.6047,-98.9431,15.71,41,0,5.99,US,1707764570
57,hawaiian paradise park,19.5933,-154.9731,23.83,89,6,0.45,US,1707764383
58,badger,64.8,-147.5333,-13.69,85,40,0.0,US,1707764362
59,saint-denis,48.9167,2.3333,7.86,83,0,3.09,FR,1707764570
60,raduzhny,62.0961,77.475,-31.46,99,17,3.4,RU,1707764388
61,port-aux-francais,-49.35,70.2167,7.16,88,30,14.83,TF,1707764360
62,i-n-salah,27.1935,2.4607,23.42,24,0,1.97,DZ,1707764455
63,anadyr,64.75,177.4833,-28.72,75,0,6.0,RU,1707764368
64,wenling,28.3669,121.36,10.96,77,99,1.11,CN,1707764570
65,kimbe,-5.5502,150.1429,24.53,94,79,0.75,PG,1707764571
66,ilulissat,69.2167,-51.1,-18.99,42,75,2.57,GL,1707764385
67,lusambo,-4.9667,23.45,26.33,69,100,0.48,CD,1707764571
68,aykhal,66.0,111.5,-37.35,100,99,2.58,RU,1707764378
69,toliara,-23.35,43.6667,29.24,81,100,3.3,MG,1707764571
70,tsumeb,-19.2333,17.7167,23.71,59,28,3.53,NA,1707764571
71,dzhalagash,45.0833,64.6667,-2.65,59,19,3.7,KZ,1707764571
72,tual,-5.6667,132.75,28.38,79,100,7.0,ID,1707764372
73,udachny,66.4167,112.4,-37.53,65,100,3.33,RU,1707764366
74,sao vicente,-23.9631,-46.3919,36.1,41,20,5.14,BR,1707764457
75,pipar,26.3856,73.5378,15.76,24,96,3.93,IN,1707764572
76,iqaluit,63.7506,-68.5145,-26.84,68,100,6.17,CA,1707764356
77,longyearbyen,78.2186,15.6401,-14.09,85,0,2.06,SJ,1707764370
78,olonkinbyen,70.9221,-8.7187,-1.52,89,100,8.18,SJ,1707764371
79,al 'amarah,31.8406,47.1396,18.84,37,7,3.39,IQ,1707764572
80,trenggalek,-8.05,111.7167,24.65,93,74,0.57,ID,1707764572
81,pointe-noire,-4.7761,11.8635,26.71,89,100,4.21,CG,1707764426
82,kyzyl-suu,42.3414,78.0056,-1.23,81,100,5.13,KG,1707764572
83,santa ana,33.7456,-117.8678,19.35,46,0,2.57,US,1707764112
84,talnakh,69.4865,88.3972,-35.98,91,5,1.64,RU,1707764452
85,atafu village,-8.5421,-172.5159,29.26,76,100,8.34,TK,1707764374
86,nar'yan-mar,67.6713,53.087,-32.72,100,40,2.24,RU,1707764572
87,lazaro cardenas,17.9583,-102.2,28.16,55,72,4.51,MX,1707764573
88,biryusinsk,55.9634,97.8235,-12.44,90,100,4.66,RU,1707764573
89,qaqortoq,60.7167,-46.0333,-3.57,70,100,3.81,GL,1707764374
90,tiksi,71.6872,128.8694,-32.68,100,100,1.04,RU,1707764361
91,lae,-6.7221,146.9847,24.32,96,91,1.57,PG,1707764573
92,luderitz,-26.6481,15.1594,18.85,89,0,5.59,NA,1707764357
93,yanam,16.7333,82.2167,21.06,81,98,1.86,IN,1707764383
94,port mathurin,-19.6833,63.4167,27.31,86,32,9.51,MU,1707764363
95,hotan,37.0997,79.9269,5.62,31,100,2.35,CN,1707764464
96,crane,31.3974,-102.3501,10.68,35,0,4.6,US,1707764387
97,kailua-kona,19.6406,-155.9956,25.28,77,48,0.89,US,1707764458
98,ola,59.5833,151.2833,-24.46,95,96,2.94,RU,1707764574
99,port elizabeth,-33.918,25.5701,23.39,86,0,6.17,ZA,1707764392
100,ma'an,26.9775,110.7211,12.93,76,100,0.61,CN,1707764574
101,isafjordur,66.0755,-23.124,0.33,96,100,11.1,IS,1707764362
102,taperoa,-7.2075,-36.8267,32.22,35,16,7.56,BR,1707764574
103,shache,38.4167,77.2406,8.73,34,100,5.31,CN,1707764574
104,yellowknife,62.456,-114.3525,-11.71,92,75,2.06,CA,1707764358
105,zdvinsk,54.7021,78.661,-25.39,99,12,3.2,RU,1707764574
106,tanumah,27.1,44.1333,14.69,57,15,3.2,SA,1707764574
107,serchhip,23.3,92.8333,8.48,60,60,1.34,IN,1707764574
108,hithadhoo,-0.6,73.0833,27.28,81,100,7.73,MV,1707764393
109,georgetown,5.4112,100.3354,27.96,71,20,4.12,MY,1707764197
110,tangstedt,53.7488,10.0645,7.27,72,40,3.09,DE,1707764575
111,ribeira grande,38.5167,-28.7,17.65,82,40,12.07,PT,1707764364
112,puerto san jose,13.9256,-90.8244,31.36,48,1,4.81,GT,1707764575
113,vilyuysk,63.7553,121.6247,-26.89,97,100,2.66,RU,1707764575
114,east london,-33.0153,27.9116,23.52,78,0,7.2,ZA,1707764375
115,kilindoni,-7.9139,39.6668,28.59,78,100,3.48,TZ,1707764575
116,arraial do cabo,-22.9661,-42.0278,31.98,58,0,9.26,BR,1707764361
117,st. john's,47.5649,-52.7093,2.66,94,100,5.14,CA,1707764373
118,papatowai,-46.5619,169.4708,10.93,83,100,1.41,NZ,1707764381
119,puerto ayora,-0.7393,-90.3518,27.98,99,52,2.68,EC,1707764377
120,fale old settlement,-9.3852,-171.2468,27.74,86,100,8.12,TK,1707764377
121,lebu,-37.6167,-73.65,14.57,69,0,11.7,CL,1707764382
122,hun,29.1268,15.9477,17.57,28,5,3.11,LY,1707764576
123,fisterra,42.9049,-9.2629,13.19,85,100,7.7,ES,1707764576
124,hadibu,12.65,54.0333,25.23,77,5,4.09,YE,1707764372
125,gadzhiyevo,69.2551,33.3362,-11.74,92,80,4.68,RU,1707764375
126,afaahiti,-17.75,-149.2833,24.93,91,100,8.25,PF,1707764366
127,noshiro,40.2039,140.0242,6.91,73,100,8.51,JP,1707764576
128,tshabong,-26.05,22.45,32.37,19,1,3.8,BW,1707764576
129,holualoa,19.6228,-155.9522,23.21,77,7,1.67,US,1707764401
130,gotsucho,35.0,132.2167,5.12,71,0,2.69,JP,1707764577
131,kitimat,54.0524,-128.6534,1.06,77,93,0.45,CA,1707764577
132,ixtapa,20.7,-105.2,28.1,36,100,2.84,MX,1707764577
133,whitehorse,60.7161,-135.0538,-8.44,81,20,1.54,CA,1707764357
134,quellon,-43.1167,-73.6167,14.86,50,21,5.08,CL,1707764577
135,general villegas,-35.0328,-63.0125,26.78,46,16,7.62,AR,1707764577
136,tongliao,43.6125,122.2653,-0.15,71,0,6.56,CN,1707764577
137,kamaishi,39.2667,141.8833,2.95,72,5,3.59,JP,1707764577
138,barcelos,41.5388,-8.6151,14.36,90,100,2.0,PT,1707764512
139,happy valley-goose bay,53.3168,-60.3315,-1.83,74,100,2.57,CA,1707764195
140,tukrah,32.5341,20.5791,14.43,66,100,4.81,LY,1707764578
141,havre,49.5833,0.3333,6.87,81,0,3.6,FR,1707764578
142,codrington,-38.2667,141.9667,16.13,70,5,1.81,AU,1707764433
143,juruti,-2.1522,-56.0922,30.3,68,19,2.13,BR,1707764578
144,bocanda,7.0626,-4.4995,34.29,28,40,1.34,CI,1707764578
145,tefe,-3.3542,-64.7114,32.06,66,75,2.57,BR,1707764424
146,byron bay,-28.65,153.6167,18.73,61,94,2.84,AU,1707764456
147,enewetak,11.3474,162.3373,26.39,74,100,9.34,MH,1707764360
148,mahasamund,21.1,82.1,23.15,62,100,3.1,IN,1707764578
149,dryden,49.7833,-92.7503,-5.84,68,75,2.06,CA,1707764367
150,spring creek,40.7266,-115.5859,3.17,51,100,2.24,US,1707764411
151,puerto armuelles,8.2833,-82.8667,33.99,57,98,0.45,PA,1707764579
152,tazacorte,28.629,-17.9293,20.54,92,75,2.57,ES,1707764411
153,kodiak,57.79,-152.4072,5.73,81,100,7.72,US,1707764360
154,cam pha mines,21.0167,107.3,15.68,85,100,2.02,VN,1707764579
155,suva,-18.1416,178.4415,25.71,94,100,2.06,FJ,1707764579
156,south hedland,-20.4089,118.5983,26.96,89,100,4.12,AU,1707764579
157,tofol,5.3248,163.0078,27.73,80,100,6.96,FM,1707764579
158,chibougamau,49.9168,-74.3659,-9.21,79,100,3.09,CA,1707764375
159,al qadarif,14.0349,35.3834,28.18,17,94,3.32,SD,1707764552
160,utrik,11.2278,169.8474,26.23,76,100,9.51,MH,1707764388
161,salym,60.0625,71.4789,-29.13,100,7,1.35,RU,1707764580
162,aasiaat,68.7098,-52.8699,-30.26,97,100,2.66,GL,1707764417
163,acarau,-2.8856,-40.12,29.71,70,83,8.45,BR,1707764584
164,bandarbeyla,9.4942,50.8122,25.89,79,0,4.56,SO,1707764584
165,hamilton,39.1834,-84.5333,10.51,56,8,2.68,US,1707764416
166,lata,40.1629,-8.3327,15.45,94,74,1.09,PT,1707764585
167,restrepo,3.822,-76.5224,27.19,75,67,2.69,CO,1707764585
168,nchelenge,-9.3451,28.734,23.14,81,100,1.27,ZM,1707764585
169,port lincoln,-34.7333,135.8667,17.13,81,0,2.04,AU,1707764391
170,caraballeda,10.6112,-66.8522,32.98,48,40,3.09,VE,1707764414
171,phek,25.6667,94.5,3.82,89,0,0.42,IN,1707764587
172,kashgar,39.4547,75.9797,8.56,14,40,3.0,CN,1707764588
173,argo,37.6333,22.7333,9.88,71,17,2.48,GR,1707764589
174,sos'va,59.1766,61.8558,-13.86,93,100,2.68,RU,1707764589
175,tralee,52.2704,-9.7026,7.14,81,75,6.17,IE,1707764591
176,al bawiti,28.3492,28.8659,20.25,14,99,3.61,EG,1707764592
177,avarua,-21.2078,-159.775,27.03,69,40,3.6,CK,1707764281
178,tupancireta,-29.0806,-53.8358,33.65,47,34,4.8,BR,1707764593
179,wailua homesteads,22.0669,-159.378,22.24,88,0,3.6,US,1707764365
180,cova figueira,14.8905,-24.2934,21.57,79,31,5.28,CV,1707764595
181,nantucket,41.2835,-70.0995,7.3,75,0,3.6,US,1707764576
182,obama,35.4958,135.746,4.03,77,0,4.44,JP,1707764597
183,savannah,32.0835,-81.0998,17.04,89,100,5.14,US,1707764532
184,west island,-12.1568,96.8225,27.99,78,40,3.09,CC,1707764383
185,manhattan,40.7834,-73.9662,9.63,59,0,2.57,US,1707764532
186,kingisepp,59.3733,28.6134,-8.12,85,60,4.72,RU,1707764598
187,kapa'a,22.0752,-159.319,22.99,89,0,1.75,US,1707764386
188,buka,40.8108,69.1986,5.74,69,0,1.45,UZ,1707764598
189,hami,42.8,93.45,0.41,46,100,2.63,CN,1707764598
190,pisco,-13.7,-76.2167,26.03,73,100,4.63,PE,1707764363
191,keflavik,64.0049,-22.5624,1.95,86,75,10.29,IS,1707764377
192,pingliang,35.5392,106.6861,3.78,67,0,1.02,CN,1707764598
193,karatau,43.1667,70.4667,-0.62,100,100,1.89,KZ,1707764598
194,rongelap,11.1635,166.8941,26.24,80,100,9.55,MH,1707764456
195,cockburn town,21.4612,-71.1419,25.33,71,0,7.99,TC,1707764448
196,el abiodh sidi cheikh,32.893,0.5484,17.78,48,0,8.2,DZ,1707764599
197,urucara,-2.5364,-57.76,30.04,69,80,1.97,BR,1707764599
198,axim,4.8699,-2.2405,28.19,82,100,3.66,GH,1707764599
199,xichang,27.8964,102.2634,6.91,61,0,0.35,CN,1707764599
200,shitanjing,39.2342,106.3439,2.17,15,14,1.55,CN,1707764600
201,petropavlovka,50.6114,105.3196,-16.22,83,100,3.14,RU,1707764475
202,nizhneudinsk,54.9076,99.0276,-13.9,81,100,3.23,RU,1707764600
203,nova sintra,14.8667,-24.7167,20.12,81,12,5.01,CV,1707764373
204,torghay,49.6339,63.4981,-18.39,93,5,2.67,KZ,1707764600
205,saint-joseph,-21.3667,55.6167,26.21,86,27,5.49,RE,1707764604
206,port alfred,-33.5906,26.891,20.66,88,0,0.89,ZA,1707764605
207,san antonio,29.4241,-98.4936,16.43,41,0,7.2,US,1707764229
208,oriximina,-1.7656,-55.8661,29.7,72,34,2.83,BR,1707764605
209,vrangel',42.7297,133.0839,0.35,88,7,2.51,RU,1707764437
210,katabu,-4.9333,122.5167,24.53,93,100,3.52,ID,1707764605
211,terra santa,-2.1042,-56.4869,29.58,74,73,1.6,BR,1707764606
212,itoman,26.1247,127.6694,19.43,48,75,3.09,JP,1707764384
213,ust'-kut,56.7938,105.7672,-14.42,94,100,2.92,RU,1707764606
214,tortoli,39.9256,9.6572,11.69,68,100,1.47,IT,1707764606
215,bereket,39.2446,55.5154,13.97,37,25,3.98,TM,1707764606
216,rabaul,-4.1967,152.1721,26.25,82,100,2.96,PG,1707764606
217,igarka,67.4667,86.5833,-36.83,96,20,2.15,RU,1707764379
218,chinde,26.8418,88.0763,9.67,46,89,2.29,NP,1707764397
219,skikda,36.8762,6.9092,15.17,84,0,9.36,DZ,1707764607
220,oltinko'l,40.8011,72.1634,8.76,56,94,0.84,UZ,1707764607
221,cabo san lucas,22.8909,-109.9124,24.23,47,0,3.13,MX,1707764378
222,jizzax,40.1158,67.8422,6.12,74,8,1.14,UZ,1707764607
223,langxiang,46.95,128.8833,-3.38,89,47,3.74,CN,1707764607
224,hermanus,-34.4187,19.2345,21.56,95,35,1.25,ZA,1707764361
225,carnarvon,-24.8667,113.6333,24.31,82,0,11.13,AU,1707764466
226,sao joao da barra,-21.6403,-41.0511,32.05,60,5,5.39,BR,1707764470
227,qarqaraly,49.4058,75.4742,-22.28,92,22,2.92,KZ,1707764523
228,kyneton,-37.25,144.4333,23.94,72,2,2.88,AU,1707764608
229,alamogordo,32.8995,-105.9603,11.45,54,0,2.68,US,1707764608
230,badiyah,22.45,58.8,21.28,70,100,3.11,OM,1707764608
231,thompson,55.7435,-97.8558,-9.91,85,75,1.54,CA,1707764192
232,altay,47.8667,88.1167,-19.77,71,5,3.39,CN,1707764608
233,santa elena de uairen,4.6167,-61.1333,32.24,26,100,3.05,VE,1707764609
234,kupang,-10.1667,123.5833,28.32,94,100,3.09,ID,1707764405
235,fuling,29.7022,107.3919,13.88,65,92,1.05,CN,1707764369
236,la passe,45.5549,-0.8967,10.13,90,5,3.13,FR,1707764375
237,tucuma,-0.1833,-50.05,28.4,76,42,3.42,BR,1707764609
238,canosa di puglia,41.2196,16.0675,10.58,80,58,1.81,IT,1707764413
239,gilgit,35.9221,74.3087,4.36,28,100,2.66,PK,1707764435
240,pankovka,58.5,31.1999,-5.5,94,100,4.29,RU,1707764609
241,lejanias,3.5251,-74.0216,29.65,81,93,2.62,CO,1707764609
242,jamestown,42.097,-79.2353,3.07,73,100,0.45,US,1707764342
243,yarmouth,41.7057,-70.2286,8.41,70,0,2.68,US,1707764452
244,katsuura,35.1333,140.3,9.69,61,6,5.9,JP,1707764393
245,sinabang,2.4803,96.3801,26.74,80,1,0.69,ID,1707764394
246,pangody,65.85,74.4859,-38.03,100,29,2.99,RU,1707764393
247,susuman,62.7833,148.1667,-41.12,100,55,0.45,RU,1707764454
248,sandnessjoen,66.0217,12.6316,-0.94,51,0,4.63,NO,1707764377
249,macia,-25.0269,33.0989,20.56,80,0,2.37,MZ,1707764611
250,masterton,-40.9597,175.6575,12.28,85,24,0.84,NZ,1707764475
251,gumdag,39.2061,54.5906,13.59,39,20,5.35,TM,1707764611
252,kavaratti,10.5669,72.642,27.92,69,43,2.1,IN,1707764387
253,tadine,-21.55,167.8833,25.32,86,11,8.16,NC,1707764386
254,strezhevoy,60.7333,77.5889,-28.35,99,30,2.24,RU,1707764398
255,montecristo,8.2971,-74.4733,36.05,45,48,1.81,CO,1707764611
256,okoneshnikovo,54.8377,75.0834,-23.0,99,100,2.91,RU,1707764611
257,kapuskasing,49.4169,-82.4331,-4.0,68,75,1.54,CA,1707764342
258,ponta delgada,37.7333,-25.6667,18.44,82,20,8.75,PT,1707764612
259,lihue,21.9789,-159.3672,22.58,87,0,3.6,US,1707764371
260,plonsk,52.6235,20.3755,8.12,89,100,6.18,PL,1707764348
261,protaras,35.0125,34.0583,17.77,78,100,0.89,CY,1707764612
262,gambiran satu,-8.3939,114.1464,22.82,93,95,1.28,ID,1707764612
263,santa elena,-2.2333,-80.85,29.75,70,40,4.12,EC,1707764612
264,chonchi,-42.6128,-73.8092,18.56,34,6,1.86,CL,1707764357
265,farafangana,-22.8167,47.8333,25.38,84,100,3.27,MG,1707764613
266,ende,-8.8432,121.6623,24.79,90,100,0.96,ID,1707764613
267,labrador city,52.9463,-66.9114,-10.05,73,100,4.12,CA,1707764458
268,huambo,-12.7761,15.7392,19.38,71,36,1.51,AO,1707764613
269,kiunga,-6.1219,141.2906,22.89,100,100,0.94,PG,1707764613
270,ust-nera,64.5667,143.2,-39.06,95,85,1.02,RU,1707764376
271,kavieng,-2.5744,150.7967,27.77,78,100,3.64,PG,1707764613
272,polyarnyy,69.1989,33.4478,-19.01,100,84,3.7,RU,1707764362
273,mejit,10.2753,170.8646,26.66,79,100,8.96,MH,1707764398
274,tura,25.5198,90.2201,12.82,32,34,1.4,IN,1707764385
275,sibolga,1.7427,98.7792,25.38,78,7,2.38,ID,1707764614
276,port macquarie,-31.4333,152.9167,19.94,97,100,1.35,AU,1707764472
277,harstad,68.799,16.5293,-2.69,57,100,15.65,NO,1707764614
278,tsiombe,-25.3,45.4833,23.89,94,100,5.07,MG,1707764451
279,kati,12.7441,-8.0726,35.67,7,56,2.12,ML,1707764614
280,broome,42.2506,-75.833,2.72,79,100,2.57,US,1707764614
281,port blair,11.6667,92.75,28.02,78,40,4.63,IN,1707764364
282,baukau,51.5526,7.2042,7.73,85,13,2.83,DE,1707764615
283,sibut,5.718,19.0739,30.19,24,0,1.72,CF,1707764615
284,kirakira,-10.4544,161.9205,26.27,84,39,4.2,SB,1707764468
285,tokmok,42.8417,75.3016,-0.12,95,93,1.28,KG,1707764615
286,alofi,-19.0595,-169.9187,26.94,89,100,3.6,NU,1707764457
287,villamontes,-21.25,-63.5,34.83,40,100,5.02,BO,1707764615
288,manadhoo,5.7667,73.3833,28.21,74,39,6.48,MV,1707764616
289,metlili chaamba,32.2667,3.6333,24.52,29,0,5.66,DZ,1707764616
290,vila velha,-20.3297,-40.2925,29.97,79,20,7.72,BR,1707764616
291,baiyin,36.5583,104.2081,1.08,33,86,0.1,CN,1707764616
292,karacoban,39.3492,42.1124,-4.38,85,100,1.57,TR,1707764616
293,qui nhon,13.7667,109.2333,20.36,89,100,3.18,VN,1707764616
294,caxito,-8.5785,13.6643,27.48,83,54,2.22,AO,1707764616
295,palmas,-10.2128,-48.3603,31.93,58,75,4.63,BR,1707764520
296,yeed,4.55,43.0333,29.71,28,7,4.37,SO,1707764617
297,inyonga,-6.7167,32.0667,20.34,90,100,0.67,TZ,1707764617
298,vilyuchinsk,52.9306,158.4028,-17.26,88,12,3.57,RU,1707764388
299,alice springs,-23.7,133.8833,22.75,94,100,0.0,AU,1707764187
300,yelizovo,53.1873,158.3805,-17.33,53,0,3.13,RU,1707764617
301,bowen,-20.0167,148.2333,24.63,88,60,3.36,AU,1707764618
302,karratha,-20.7377,116.8463,26.98,79,0,5.26,AU,1707764369
303,opuwo,-18.0607,13.84,23.01,76,100,5.74,NA,1707764618
304,naze,28.3667,129.4833,9.51,62,0,1.44,JP,1707764400
305,akureyri,65.6835,-18.0878,0.96,86,100,5.14,IS,1707764377
306,lycksele,64.5954,18.6735,-28.09,76,82,0.0,SE,1707764618
307,puerto santa,-8.9906,-78.6456,22.33,92,97,6.23,PE,1707764618
308,samana,19.2056,-69.3369,30.12,70,40,5.14,DO,1707764618
309,vadso,70.0744,29.7487,-5.91,86,75,5.66,NO,1707764371
310,ardestan,33.3761,52.3694,11.45,25,0,1.66,IR,1707764619
311,sinop,41.7711,34.8709,11.53,54,100,3.69,TR,1707764619
312,kotido,2.9806,34.1331,28.16,35,61,7.1,UG,1707764619
313,pacasmayo,-7.4006,-79.5714,27.13,70,89,6.16,PE,1707764467
314,kourou,5.1552,-52.6478,24.03,82,100,4.38,GF,1707764391
315,raja,8.4596,25.678,30.07,19,43,2.23,SS,1707764619
316,kampene,-3.6,26.6667,22.49,79,100,0.95,CD,1707764619
317,keetmanshoop,-26.5833,18.1333,35.51,13,5,8.75,NA,1707764471
318,zarah sharan,33.1467,68.7917,2.65,42,95,0.82,AF,1707764620
319,mahalapye,-23.1041,26.8142,25.91,40,33,1.98,BW,1707764620
320,gizo,-8.103,156.8419,27.92,75,34,5.19,SB,1707764620
321,college,64.8569,-147.8028,-13.64,81,40,0.0,US,1707764369
322,san luis de la loma,17.2706,-100.8939,29.0,54,36,3.6,MX,1707764620
323,dawson creek,55.7666,-120.2362,0.8,40,0,4.63,CA,1707764621
324,richmond,37.5538,-77.4603,10.12,95,100,3.09,US,1707764559
325,szczecinek,53.7079,16.6994,2.5,96,100,6.07,PL,1707764621
326,sferracavallo,42.726,12.0956,11.03,85,99,1.93,IT,1707764621
327,cungus,38.2125,39.2856,6.27,81,100,1.65,TR,1707764621
328,inarajan village,13.2736,144.7484,26.11,85,100,7.21,GU,1707764621
329,dolisie,-4.1997,12.6739,25.93,83,100,1.77,CG,1707764622
330,lorengau,-2.0226,147.2712,27.21,80,100,3.91,PG,1707764473
331,taoudenni,22.6783,-3.9836,29.26,24,0,4.06,ML,1707764622
332,selfoss,63.9331,-20.9971,-0.53,77,100,5.82,IS,1707764622
333,mount gambier,-37.8333,140.7667,14.79,62,0,1.79,AU,1707764382
334,bushehr,28.9684,50.8385,19.05,72,0,2.06,IR,1707764622
335,ilhabela,-23.7781,-45.3581,27.16,86,100,1.32,BR,1707764623
336,srivardhan,18.0333,73.0167,22.46,64,7,3.34,IN,1707764623
337,puerto baquerizo moreno,-0.9,-89.6,26.55,89,75,3.09,EC,1707764089
338,fort bragg,35.139,-79.006,17.33,92,100,3.09,US,1707764359
339,camana,-16.6228,-72.7111,25.73,74,98,4.1,PE,1707764474
340,camayenne,9.535,-13.6878,30.05,54,40,3.09,GN,1707764623
341,porangatu,-13.4408,-49.1486,27.84,79,100,0.87,BR,1707764623
342,saint-henri,46.6921,-71.0671,1.71,67,100,3.6,CA,1707764623
343,shimabara,32.7833,130.3667,6.61,63,0,1.56,JP,1707764624
344,tomatlan,19.9333,-105.25,29.47,41,79,1.9,MX,1707764379
345,cantanhede,-3.6333,-44.3767,28.5,84,100,0.85,BR,1707764624
346,wadebridge,50.5173,-4.8363,8.14,76,20,4.63,GB,1707764624
347,uturoa,-16.7333,-151.4333,26.31,95,100,5.67,PF,1707764384
348,maxixe,-23.8597,35.3472,24.91,73,20,4.63,MZ,1707764624
349,alaghsas,17.0187,8.0168,29.94,6,0,3.6,NE,1707764624
350,stiens,53.2623,5.7577,6.66,83,75,3.6,NL,1707764625
351,kosh-agach,50.0,88.6667,-29.27,82,2,0.45,RU,1707764625
352,chui,-33.6971,-53.4616,23.76,90,100,7.7,UY,1707764625
353,progreso,21.2833,-89.6667,33.06,90,0,6.83,MX,1707764625
354,robertsport,6.7533,-11.3686,28.25,84,100,4.66,LR,1707764625
355,harihar,14.5167,75.8,24.83,37,100,6.01,IN,1707764625
356,juba,4.8517,31.5825,29.67,42,75,0.39,SS,1707764625
357,manicore,-5.8092,-61.3003,25.07,96,100,0.66,BR,1707764625
358,nadi,-17.8,177.4167,28.0,89,40,2.06,FJ,1707764371
359,ts'nori,41.6209,45.9694,11.16,51,100,0.4,GE,1707764626
360,rosarito,32.3333,-117.0333,18.47,52,0,2.88,MX,1707764406
361,minas de marcona,-15.2119,-75.1103,28.66,42,57,3.43,PE,1707764378
362,ad dabbah,18.05,30.95,23.06,13,0,3.52,SD,1707764394
363,la ronge,55.1001,-105.2842,-4.86,68,75,2.57,CA,1707764390
364,urengoy,65.9667,78.3667,-33.51,89,10,3.21,RU,1707764626
365,kattivakkam,13.2167,80.3167,26.05,76,18,2.37,IN,1707764473
366,beipiao,41.7919,120.7792,-0.7,83,0,2.66,CN,1707764626
367,kindu,-2.95,25.95,23.09,87,100,1.27,CD,1707764626
368,lind,56.1,8.9833,4.02,100,100,1.24,DK,1707764627
369,zhezqazghan,47.7833,67.7667,-20.93,95,10,2.53,KZ,1707764627
370,as samawah,31.332,45.2944,17.81,48,3,3.89,IQ,1707764627
371,new port richey,28.2442,-82.7193,29.1,83,100,9.29,US,1707764614
372,meulaboh,4.1363,96.1285,24.33,86,0,1.66,ID,1707764627
373,stephenville,32.2207,-98.2023,11.25,49,0,7.72,US,1707764441
374,dire dawa,9.5931,41.8661,23.81,64,97,1.22,ET,1707764627
375,inhambane,-23.865,35.3833,25.0,73,20,4.63,MZ,1707764628
376,ergani,38.2653,39.7621,8.63,75,100,1.07,TR,1707764628
377,quepos,9.4236,-84.1652,31.13,62,50,3.35,CR,1707764542
378,shuangjiang,26.1547,109.7138,10.37,75,100,1.86,CN,1707764628
379,kill devil hills,36.0307,-75.676,9.01,99,100,1.54,US,1707764498
380,dudinka,69.4058,86.1778,-37.4,99,25,1.79,RU,1707764368
381,myitkyina,25.3833,97.4,15.14,61,0,1.08,MM,1707764399
382,praia da vitoria,38.7333,-27.0667,18.14,68,40,12.79,PT,1707764442
383,harper,4.375,-7.7169,27.43,82,100,2.3,LR,1707764628
384,anloga,5.7947,0.8973,28.13,83,0,5.65,GH,1707764628
385,colac,-38.3333,143.5833,17.32,71,100,1.41,AU,1707764629
386,atbasar,51.8,68.3333,-21.52,97,100,2.9,KZ,1707764629
387,pamandzi,-12.7967,45.2794,26.88,83,0,1.54,YT,1707764629
388,baruun-urt,46.6806,113.2792,-9.0,88,10,3.27,MN,1707764477
389,tangalle,6.024,80.7911,26.09,75,85,7.3,LK,1707764629
390,brisas barra de suchiate,14.55,-92.2167,34.1,56,0,5.93,MX,1707764629
391,babol,36.5513,52.679,10.04,52,23,1.37,IR,1707764629
392,santa cruz,-17.8,-63.1667,31.03,62,40,7.2,BO,1707764409
393,la'ie,21.6477,-157.9253,25.03,78,67,3.75,US,1707764381
394,abepura,-2.6333,140.5833,23.45,100,20,1.03,ID,1707764630
395,mili,6.0815,171.735,27.68,73,100,9.53,MH,1707764630
396,thunder bay,48.4001,-89.3168,-3.01,68,100,3.09,CA,1707764373
397,razole,16.4833,81.8333,18.57,93,93,1.39,IN,1707764630
398,tateyama,34.9833,139.8667,11.72,60,7,7.13,JP,1707764630
399,nouadhibou,20.931,-17.0347,21.99,73,0,5.66,MR,1707764630
400,itaueira,-7.6033,-43.0256,31.72,49,75,3.83,BR,1707764630
401,san antonio de pale,-1.4014,5.6325,28.7,80,85,2.35,GQ,1707764382
402,sitka,57.0531,-135.33,2.94,87,40,2.57,US,1707764356
403,tobruk,32.0836,23.9764,15.71,65,100,7.13,LY,1707764631
404,bar-le-duc,48.75,5.1667,4.21,93,96,1.95,FR,1707764631
405,tropea,38.6754,15.8948,12.61,69,6,7.02,IT,1707764631
406,new norfolk,-42.7826,147.0587,12.72,91,22,1.3,AU,1707764455
407,ugoofaaru,5.6667,73.0,28.05,75,75,5.0,MV,1707764631
408,prince rupert,54.3161,-130.3201,4.05,93,100,6.17,CA,1707764387
409,masvingo,-20.0637,30.8277,18.67,69,1,1.92,ZW,1707764631
410,banda aceh,5.5577,95.3222,28.35,74,0,11.44,ID,1707764631
411,labytnangi,66.6572,66.4183,-34.26,92,7,1.25,RU,1707764631
412,mount pearl,47.5166,-52.7813,2.2,94,100,5.14,CA,1707764382
413,rio grande,-32.035,-52.0986,33.06,89,100,6.88,BR,1707764102
414,claveria,18.6074,121.0832,20.41,83,48,7.25,PH,1707764632
415,khash,28.2211,61.2158,13.0,28,100,5.56,IR,1707764632
416,sydney,-33.8679,151.2073,23.17,86,0,3.09,AU,1707763836
417,peniche,39.3558,-9.3811,17.38,91,100,3.68,PT,1707764632
418,oppdal,62.5943,9.6912,-8.12,88,100,4.17,NO,1707764632
419,indre arna,60.4247,5.4764,1.12,94,100,2.96,NO,1707764632
420,portage la prairie,49.9728,-98.2926,-0.5,78,100,4.63,CA,1707764633
421,nuuk,64.1835,-51.7216,-12.29,66,100,7.15,GL,1707764335
422,slave lake,55.2834,-114.769,-1.01,51,0,5.66,CA,1707764356
423,floro,61.5996,5.0328,2.98,75,75,7.72,NO,1707764391
424,cruzeiro do sul,-29.5128,-51.9853,33.62,58,100,6.35,BR,1707764633
425,kot addu,30.4692,70.9671,14.68,22,100,1.69,PK,1707764633
426,la sarre,48.8002,-79.1996,-4.84,75,100,1.94,CA,1707764167
427,el granada,37.5027,-122.4694,14.55,85,0,2.06,US,1707764396
428,leava,-14.3,-178.1667,28.87,81,100,8.82,WF,1707764633
429,padangsidempuan,1.3667,99.2667,22.0,94,45,1.6,ID,1707764634
430,sanshui,23.1549,112.8916,13.99,75,9,2.04,CN,1707764634
431,santa terezinha,-29.9002,-50.0904,27.79,74,98,3.11,BR,1707764634
432,enriquillo,17.9,-71.2333,29.82,65,0,5.65,DO,1707764479
433,port saint john's,-31.6229,29.5448,22.79,81,0,7.17,ZA,1707764451
434,maceio,-9.6658,-35.7353,26.69,94,75,4.12,BR,1707764634
435,turkmenabat,39.0733,63.5786,8.99,71,0,3.09,TM,1707764634
436,porto novo,6.4965,2.6036,29.9,83,0,3.42,BJ,1707764634
437,lautoka,-17.6167,177.4667,27.92,89,40,2.06,FJ,1707764476
438,sampit,-2.5333,112.95,23.94,99,100,0.66,ID,1707764634
439,veinticinco de mayo,-35.4323,-60.1727,23.88,60,100,4.92,AR,1707764635
440,mata-utu,-13.2816,-176.1745,28.76,78,100,8.32,WF,1707764390
441,saipan,15.1355,145.701,24.39,83,75,5.66,MP,1707764363
442,santiago,-33.4569,-70.6483,34.84,25,0,6.69,CL,1707764413
443,smithfield,41.922,-71.5495,9.47,54,0,1.79,US,1707764635
444,bozhou,33.8772,115.7703,8.63,67,0,3.35,CN,1707764635
445,whangarei,-35.7317,174.3239,14.64,84,3,0.84,NZ,1707764635
446,kovalam,8.3667,76.9967,28.05,78,20,2.06,IN,1707764635
447,itagi,-14.1628,-40.0061,30.74,55,43,4.27,BR,1707764635
448,kolonia town,6.964,158.206,28.0,74,75,4.12,FM,1707764374
449,stepnoye,51.4,46.8667,0.92,100,100,6.96,RU,1707764636
450,mandalgovi,45.7625,106.2708,-9.64,87,16,3.77,MN,1707764636
451,mbandaka,0.0487,18.2603,28.52,53,100,1.3,CD,1707764636
452,tionk essil,12.7856,-16.5217,37.03,32,0,4.38,SN,1707764636
453,kayenta,36.7278,-110.2546,3.79,27,0,0.58,US,1707764636
454,bratsk,56.1325,101.6142,-15.73,91,100,2.7,RU,1707764636
455,trail,49.0998,-117.7022,3.71,90,100,1.05,CA,1707764636
456,ha'il,27.5219,41.6907,11.01,82,0,2.06,SA,1707764636
457,west kelowna,49.8625,-119.5833,3.62,94,100,1.54,CA,1707764636
458,luanda,-8.8368,13.2343,30.0,74,75,4.12,AO,1707764382
459,zaraza,9.3503,-65.3245,37.29,21,100,4.38,VE,1707764637
460,dhar,22.6,75.3,19.11,33,100,1.48,IN,1707764637
461,port douglas,-16.4833,145.4667,25.69,86,19,2.41,AU,1707764507
462,tshikapa,-6.4167,20.8,25.8,76,9,1.24,CD,1707764637
463,korla,41.7597,86.1469,0.9,60,100,5.28,CN,1707764429
464,souillac,-20.5167,57.5167,27.42,89,40,4.63,MU,1707764407
465,zavitinsk,50.1167,129.45,-11.34,98,100,1.8,RU,1707764637
466,lubango,-14.9172,13.4925,19.92,83,100,1.54,AO,1707764637
467,sao francisco,-15.9486,-44.8644,29.96,55,7,3.64,BR,1707764637
468,betio village,1.358,172.9211,27.89,83,100,6.88,KI,1707764638
469,tidjikja,18.5564,-11.4271,28.8,23,0,3.83,MR,1707764638
470,mawlaik,23.6333,94.4167,14.61,53,16,0.67,MM,1707764638
471,hirara,24.8,125.2833,16.92,59,100,3.09,JP,1707764638
472,kirensk,57.7853,108.1119,-14.89,96,100,2.93,RU,1707764638
473,ghadamis,30.1337,9.5007,19.29,42,0,3.78,LY,1707764453
474,lodja,-3.4833,23.4333,25.04,71,78,0.59,CD,1707764638
475,victorica,-36.2151,-65.4359,26.54,23,3,7.79,AR,1707764638
476,hanting,36.7708,119.2108,6.61,75,0,3.78,CN,1707764638
477,antofagasta,-23.65,-70.4,23.6,75,100,4.6,CL,1707764437
478,macapa,0.0389,-51.0664,28.99,79,100,4.12,BR,1707764590
479,magadan,59.5667,150.8,-24.59,97,98,2.49,RU,1707764639
480,saint-philippe,-21.3585,55.7679,26.77,91,80,2.88,RE,1707764389
481,lijiang,26.8688,100.2207,0.51,58,0,2.7,CN,1707764639
482,blagoveshchensk,50.2667,127.5333,-9.66,79,40,1.0,RU,1707764639
483,huanan,46.2167,130.5167,-6.92,91,100,2.24,CN,1707764639
484,bamboo flat,11.7,92.7167,28.05,78,40,4.63,IN,1707764639
485,birniwa,12.7903,10.2348,26.98,7,0,4.55,NG,1707764639
486,acapulco de juarez,16.8634,-99.8901,29.07,55,5,3.88,MX,1707764391
487,sidney,-33.8679,151.2073,23.17,86,0,3.09,AU,1707764345
488,kaliua,-5.0606,31.7936,21.37,88,100,0.79,TZ,1707764640
489,formosa do rio preto,-11.0483,-45.1931,27.71,68,99,3.47,BR,1707764640
490,zhalantun,48.0,122.7167,-10.73,92,81,1.74,CN,1707764640
491,al muwayh,22.4333,41.7583,16.21,28,0,5.55,SA,1707764640
492,novohrad-volynskyi,50.5941,27.6165,7.42,88,100,0.7,UA,1707764640
493,remire-montjoly,4.9167,-52.2667,24.02,94,75,3.09,GF,1707764475
494,coxen hole,16.3244,-86.5366,29.6,66,0,3.09,HN,1707764406
495,solnechnyy,50.7214,136.6319,-14.98,92,100,1.37,RU,1707764640
496,hailey,43.5196,-114.3153,-0.61,72,91,1.18,US,1707764355
497,sangsong-ni,39.1694,126.8856,-1.77,98,18,2.2,KP,1707764641
498,kyren,51.6828,102.1408,-15.03,97,100,0.45,RU,1707764386
499,tetyushi,54.9382,48.8366,-8.73,95,100,5.59,RU,1707764641
500,meadow lakes,61.6247,-149.6011,3.99,62,100,5.14,US,1707764397
501,saudarkrokur,65.7461,-19.6394,0.12,91,100,7.78,IS,1707764641
502,mount isa,-20.7333,139.5,25.87,83,8,1.54,AU,1707764395
503,kismayo,-0.3582,42.5454,26.53,84,48,6.3,SO,1707764641
504,kolonia,50.9333,6.95,7.76,79,0,2.06,DE,1707764236
505,minot,48.2325,-101.2963,-2.77,87,100,3.22,US,1707764463
506,gunjur,13.2019,-16.7339,34.04,36,0,3.09,GM,1707764641
507,katsuren-haebaru,26.3369,127.8719,18.01,51,41,5.08,JP,1707764641
508,puerto deseado,-47.7503,-65.8938,14.79,38,90,10.32,AR,1707764450
509,lerwick,60.1545,-1.1494,6.0,78,39,8.15,GB,1707764462
510,dolinsk,47.35,142.8,-1.82,80,100,6.24,RU,1707764642
511,pertuis,43.6925,5.5028,8.4,89,17,2.36,FR,1707764642
512,aswan,24.0934,32.907,22.61,16,0,2.57,EG,1707764642
513,kingston,17.997,-76.7936,31.25,63,20,10.29,JM,1707764384
514,lakatoro,-16.0999,167.4164,26.41,84,21,2.44,VU,1707764642
515,howrah,22.5892,88.3103,20.0,73,40,0.0,IN,1707764395
516,boa vista,2.8197,-60.6733,34.99,38,75,5.66,BR,1707764452
517,lib,8.3122,167.3766,27.12,77,100,9.76,MH,1707764643
518,impfondo,1.6381,18.0667,31.91,33,100,1.24,CG,1707764643
519,tindouf,27.6711,-8.1474,29.25,17,0,2.57,DZ,1707764643
520,mbanza kongo,-6.267,14.2401,24.91,82,97,1.42,AO,1707764643
521,papenburg,53.0667,7.4,6.13,87,100,0.89,DE,1707764643
522,san andres,12.5847,-81.7006,30.01,74,20,5.14,CO,1707764644
523,pasuquin,18.3328,120.6177,20.97,73,20,2.06,PH,1707764477
524,weno,7.4515,151.8468,27.97,74,100,4.63,FM,1707764372
525,smithers,54.7804,-127.1743,-6.82,93,100,2.06,CA,1707764358
526,charters towers,-20.1,146.2667,23.0,88,0,2.23,AU,1707764644
527,bakchar,57.0186,82.0711,-19.72,95,100,3.25,RU,1707764645
528,amga,60.8953,131.9608,-29.6,100,100,1.62,RU,1707764646
529,kontcha,7.9667,12.2333,29.15,16,0,1.7,CM,1707764646
530,sechura,-5.5569,-80.8222,30.7,54,49,5.89,PE,1707764646
531,taksimo,56.3444,114.8794,-20.32,91,97,1.32,RU,1707764646
532,miquelon,47.0975,-56.3814,2.0,88,100,9.02,PM,1707764646
533,san diego country estates,33.0067,-116.7836,16.74,34,0,2.06,US,1707764647
534,viedma,-40.8135,-62.9967,20.46,31,6,7.96,AR,1707764615
535,ajdabiya,30.7554,20.2263,17.15,55,0,4.89,LY,1707764647
536,bajitpur,24.2167,90.95,16.87,37,88,2.51,BD,1707764647
537,tamiahua,21.2667,-97.45,19.35,56,100,9.22,MX,1707764647
538,negombo,7.2083,79.8358,27.03,83,0,3.09,LK,1707764647
539,champerico,14.3,-91.9167,36.3,35,0,6.9,GT,1707764648
540,xiazhuang,34.9161,118.6389,5.97,78,0,2.72,CN,1707764648
541,fort st. john,56.2499,-120.8529,-2.06,46,20,5.66,CA,1707764346
542,balqash,46.8481,74.995,-16.45,86,12,3.76,KZ,1707764648
543,haiku-pauwela,20.9219,-156.3051,23.91,70,0,2.57,US,1707764372
544,taourirt,34.4073,-2.8973,18.55,60,5,1.42,MA,1707764648
545,khovd,48.0056,91.6419,-12.4,43,0,4.11,MN,1707764648
546,tolanaro,-25.0319,46.9987,26.04,89,75,4.63,MG,1707764378
547,kristiansund,63.1115,7.732,5.36,52,75,4.63,NO,1707764457
548,bulungu,-4.55,18.6,26.09,72,0,1.07,CD,1707764649
549,goyerkata,26.6998,89.0257,15.82,40,47,1.82,IN,1707764649
550,xinyu,27.8043,114.9334,12.16,71,100,0.58,CN,1707764429
551,kuanda,56.3161,116.0806,-23.32,90,87,0.04,RU,1707764649
552,usinsk,65.9939,57.5281,-29.4,98,6,1.79,RU,1707764649
553,ilebo,-4.3167,20.5833,25.76,74,100,0.41,CD,1707764650
554,tayoltita,24.0833,-105.9333,25.47,7,0,2.97,MX,1707764650
555,kolwezi,-10.7148,25.4667,17.94,84,17,1.83,CD,1707764429
556,tamanrasset,22.785,5.5228,22.95,20,0,3.6,DZ,1707764372
557,sittwe,20.15,92.9,20.59,62,32,2.9,MM,1707764650
558,gornozavodsk,58.3758,58.3211,-14.57,95,100,2.18,RU,1707764651
559,sur,22.5667,59.5289,21.91,80,41,7.61,OM,1707764458
560,atakpame,7.5333,1.1333,31.8,33,5,0.44,TG,1707764461
561,antonio enes,-16.2325,39.9086,24.16,98,100,1.73,MZ,1707764651
562,rikaze,29.25,88.8833,-2.0,17,13,0.62,CN,1707764383
563,bamiantong,44.9333,130.5333,-1.52,78,5,5.3,CN,1707764651
564,coahuayana de hidalgo,18.7,-103.6583,28.29,54,100,3.69,MX,1707764080
565,margate,51.3813,1.3862,6.5,70,16,1.79,GB,1707764651
566,saint-pierre,-21.3393,55.4781,26.82,89,0,4.63,RE,1707764651
567,bubaque,11.2833,-15.8333,26.71,67,0,6.31,GW,1707764400
568,hinton,53.4001,-117.5857,1.21,58,3,0.79,CA,1707764652
569,pirallahi,40.4723,50.333,8.08,72,98,5.07,AZ,1707764652
570,aur,8.1499,171.1687,27.79,72,100,8.96,MH,1707764652
571,entebbe,0.0644,32.4469,23.18,78,20,1.54,UG,1707764652
572,cidreira,-30.1811,-50.2056,28.76,68,41,3.46,BR,1707764085
573,wagar,16.1525,36.2032,27.68,19,3,4.59,SD,1707764653
574,fauske,67.2588,15.3918,-2.98,64,100,7.38,NO,1707764653
575,horta,38.5333,-28.6333,17.23,83,40,13.41,PT,1707764426
576,cabedelo,-6.9811,-34.8339,32.37,69,95,6.43,BR,1707764466
577,tosontsengel,48.7567,98.2839,-26.94,96,9,0.23,MN,1707764653
578,sulechow,52.0836,15.6251,7.06,93,0,4.12,PL,1707764653
579,nova vicosa,-17.8919,-39.3719,28.69,69,23,4.27,BR,1707764458
580,kone,-21.0595,164.8658,22.77,90,0,2.03,NC,1707764454
581,jinchang,38.4953,102.1739,1.9,18,37,1.92,CN,1707764653
582,nema,57.5067,50.5011,-11.24,95,100,4.27,RU,1707764654
583,neiafu,-18.65,-173.9833,27.38,89,75,0.0,TO,1707764654
